%  GPST                  latitude(deg) longitude(deg)  height(m)   Q  ns   sdn(m)   sde(m)   sdu(m)  sdne(m)  sdeu(m)  sdun(m) age(s)  ratio   vn(m/s)   ve(m/s)   vu(m/s)   sdvn(m/s)   sdve(m/s)   sdvu(m/s)
2026/01/15 14:51:41.416   32.063306223   34.800599649    65.9293   4   0   0.4975   0.4199   0.9708   0.2406   0.2348   0.3988  -0.58    0.0   0.0000   0.0000   0.0000   30.0000   30.0000   30.0000
2026/01/15 14:51:42.416   32.063264291   34.800535432    56.9434   4   0   0.3922   0.3596   0.8162   0.0906  -0.1939   0.1188   0.42    0.0   0.0000   0.0000   0.0000   30.0000   30.0000   30.0000
2026/01/15 14:51:43.416   32.063254441   34.800530265    57.1525   4   0   0.3893   0.3607   0.8222   0.0904  -0.2022   0.1313  -0.58    0.0   0.0000   0.0000   0.0000   30.0000   30.0000   30.0000
2026/01/15 14:51:44.416   32.063248661   34.800536045    55.4827   4   0   0.3876   0.3592   0.8146   0.0899  -0.2002   0.1302  -0.58    0.0   0.0000   0.0000   0.0000   30.0000   30.0000   30.0000
2026/01/15 14:51:45.416   32.063245520   34.800527573    55.2927   4   0   0.3918   0.3596   0.8041   0.0831  -0.1978   0.1296  -0.58    0.0   0.0000   0.0000   0.0000   30.0000   30.0000   30.0000
2026/01/15 14:51:46.416   32.063245398   34.800531136    55.6832   4   0   0.3873   0.3590   0.7967   0.0902  -0.1957   0.1268  -0.58    0.0   0.0000   0.0000   0.0000   30.0000   30.0000   30.0000
2026/01/15 14:51:47.416   32.063244627   34.800526929    55.1425   4   0   0.3917   0.3595   0.7941   0.0834  -0.1952   0.1275  -0.58    0.0   0.0000   0.0000   0.0000   30.0000   30.0000   30.0000
2026/01/15 14:51:48.416   32.063245038   34.800525362    55.0013   4   0   0.3917   0.3595   0.7937   0.0835  -0.1950   0.1271  -0.58    0.0   0.0000   0.0000   0.0000   30.0000   30.0000   30.0000
2026/01/15 14:51:49.416   32.063244853   34.800535274    54.1247   4   0   0.3867   0.3584   0.7893   0.1006  -0.1893   0.1078  -0.58    0.0   0.0000   0.0000   0.0000   30.0000   30.0000   30.0000
2026/01/15 14:51:50.416   32.063249793   34.800538524    52.5590   4   0   0.3915   0.3603   0.7899   0.0982  -0.1924   0.1046  -0.58    0.0   0.0000   0.0000   0.0000   30.0000   30.0000   30.0000
2026/01/15 14:51:51.416   32.063247521   34.800538093    52.3685   4   0   0.3876   0.3595   0.7899   0.1046  -0.1919   0.1021  -0.58    0.0   0.0000   0.0000   0.0000   30.0000   30.0000   30.0000
2026/01/15 14:51:52.416   32.063256310   34.800539456    53.8930   4   0   0.3915   0.3603   0.7902   0.0984  -0.1924   0.1043  -0.58    0.0   0.0000   0.0000   0.0000   30.0000   30.0000   30.0000
2026/01/15 14:51:53.416   32.063252670   34.800536018    54.2720   4   0   0.3930   0.3619   0.7952   0.0921  -0.2003   0.1183  -0.58    0.0   0.0000   0.0000   0.0000   30.0000   30.0000   30.0000
2026/01/15 14:51:54.416   32.063252285   34.800540495    53.9540   4   0   0.3876   0.3595   0.7903   0.1047  -0.1918   0.1019  -0.58    0.0   0.0000   0.0000   0.0000   30.0000   30.0000   30.0000
2026/01/15 14:51:55.416   32.063249102   34.800536167    53.6338   4   0   0.3930   0.3619   0.7954   0.0922  -0.2002   0.1181  -0.58    0.0   0.0000   0.0000   0.0000   30.0000   30.0000   30.0000
2026/01/15 14:51:56.416   32.063253486   34.800533634    54.0887   4   0   0.3922   0.3607   0.7949   0.0882  -0.1973   0.1223  -0.58    0.0   0.0000   0.0000   0.0000   30.0000   30.0000   30.0000
2026/01/15 14:51:57.416   32.063256013   34.800535653    55.2911   4   0   0.3922   0.3612   0.8004   0.0972  -0.2010   0.1340  -0.58    0.0   0.0000   0.0000   0.0000   30.0000   30.0000   30.0000
2026/01/15 14:51:58.416   32.063257048   34.800532957    56.0112   4   0   0.3930   0.3578   0.7932   0.0895  -0.1872   0.1297  -0.58    0.0   0.0000   0.0000   0.0000   30.0000   30.0000   30.0000
2026/01/15 14:51:59.416   32.063246295   34.800530101    54.9320   4   0   0.3903   0.3589   0.7986   0.0890  -0.1952   0.1414  -0.58    0.0   0.0000   0.0000   0.0000   30.0000   30.0000   30.0000
2026/01/15 14:52:00.416   32.063263976   34.800534646    56.3316   4   0   0.3936   0.3604   0.7960   0.0776  -0.1891   0.1145  -0.58    0.0   0.0000   0.0000   0.0000   30.0000   30.0000   30.0000
2026/01/15 14:52:01.416   32.063257232   34.800535866    55.1007   4   0   0.3925   0.3643   0.7915   0.0899  -0.1726   0.1031  -0.58    0.0   0.0000   0.0000   0.0000   30.0000   30.0000   30.0000
2026/01/15 14:52:02.416   32.063251076   34.800528061    54.7840   4   0   0.3856   0.3627   0.7890   0.1012  -0.1771   0.1127  -0.58    0.0   0.0000   0.0000   0.0000   30.0000   30.0000   30.0000
2026/01/15 14:52:03.416   32.063246061   34.800531326    53.4725   4   0   0.3901   0.3630   0.7889   0.0969  -0.1773   0.1144  -0.58    0.0   0.0000   0.0000   0.0000   30.0000   30.0000   30.0000
2026/01/15 14:52:04.416   32.063251072   34.800523996    53.4675   4   0   0.3900   0.3630   0.7889   0.0969  -0.1772   0.1142  -0.58    0.0   0.0000   0.0000   0.0000   30.0000   30.0000   30.0000
2026/01/15 14:52:05.416   32.063255195   34.800523034    53.9686   4   0   0.3907   0.3640   0.7899   0.1002  -0.1801   0.1098  -0.58    0.0   0.0000   0.0000   0.0000   30.0000   30.0000   30.0000
2026/01/15 14:52:06.416   32.063252590   34.800527622    55.5476   4   0   0.3900   0.3630   0.7890   0.0971  -0.1771   0.1137  -0.58    0.0   0.0000   0.0000   0.0000   30.0000   30.0000   30.0000
2026/01/15 14:52:07.416   32.063251165   34.800530196    54.5441   4   0   0.3874   0.3646   0.7908   0.1083  -0.1823   0.1017  -0.58    0.0   0.0000   0.0000   0.0000   30.0000   30.0000   30.0000
2026/01/15 14:52:08.416   32.063252085   34.800531320    55.0095   4   0   0.3906   0.3640   0.7899   0.1004  -0.1798   0.1092  -0.58    0.0   0.0000   0.0000   0.0000   30.0000   30.0000   30.0000
2026/01/15 14:52:09.416   32.063244405   34.800525466    54.1402   4   0   0.3854   0.3627   0.7888   0.1016  -0.1764   0.1115  -0.58    0.0   0.0000   0.0000   0.0000   30.0000   30.0000   30.0000
2026/01/15 14:52:10.416   32.063245509   34.800530313    53.6377   4   0   0.3899   0.3630   0.7887   0.0973  -0.1765   0.1132  -0.58    0.0   0.0000   0.0000   0.0000   30.0000   30.0000   30.0000
2026/01/15 14:52:11.416   32.063246373   34.800527911    55.3818   4   0   0.3898   0.3630   0.7887   0.0974  -0.1764   0.1130  -0.58    0.0   0.0000   0.0000   0.0000   30.0000   30.0000   30.0000
2026/01/15 14:52:12.416   32.063241789   34.800528357    54.2429   4   0   0.3853   0.3627   0.7887   0.1018  -0.1760   0.1111  -0.58    0.0   0.0000   0.0000   0.0000   30.0000   30.0000   30.0000
2026/01/15 14:52:13.416   32.063241176   34.800520764    53.3696   4   0   0.3898   0.3630   0.7887   0.0975  -0.1761   0.1127  -0.58    0.0   0.0000   0.0000   0.0000   30.0000   30.0000   30.0000
2026/01/15 14:52:14.416   32.063249419   34.800522697    53.5641   4   0   0.3898   0.3630   0.7887   0.0975  -0.1760   0.1125  -0.58    0.0   0.0000   0.0000   0.0000   30.0000   30.0000   30.0000
2026/01/15 14:52:15.416   32.063252252   34.800519211    52.9446   4   0   0.3898   0.3630   0.7887   0.0976  -0.1759   0.1123  -0.58    0.0   0.0000   0.0000   0.0000   30.0000   30.0000   30.0000
2026/01/15 14:52:16.416   32.063248483   34.800519796    53.8315   4   0   0.3921   0.3642   0.7909   0.0909  -0.1707   0.1002  -0.58    0.0   0.0000   0.0000   0.0000   30.0000   30.0000   30.0000
2026/01/15 14:52:17.416   32.063248033   34.800524278    53.5026   4   0   0.3920   0.3642   0.7910   0.0909  -0.1706   0.0999  -0.58    0.0   0.0000   0.0000   0.0000   30.0000   30.0000   30.0000
2026/01/15 14:52:18.416   32.063244145   34.800522520    53.6573   4   0   0.3920   0.3642   0.7909   0.0910  -0.1705   0.0997  -0.58    0.0   0.0000   0.0000   0.0000   30.0000   30.0000   30.0000
2026/01/15 14:52:19.416   32.063238046   34.800515396    53.2313   4   0   0.3872   0.3583   0.7896   0.0922  -0.1784   0.0954  -0.58    0.0   0.0000   0.0000   0.0000   30.0000   30.0000   30.0000
2026/01/15 14:52:20.416   32.063247502   34.800522726    53.2986   4   0   0.3916   0.3588   0.7896   0.0856  -0.1785   0.0955  -0.58    0.0   0.0000   0.0000   0.0000   30.0000   30.0000   30.0000
2026/01/15 14:52:21.416   32.063251218   34.800524939    53.3085   4   0   0.3892   0.3605   0.7917   0.1005  -0.1844   0.0829  -0.58    0.0   0.0000   0.0000   0.0000   30.0000   30.0000   30.0000
2026/01/15 14:52:22.416   32.063250613   34.800524507    52.9017   4   0   0.3938   0.3620   0.7944   0.0910  -0.1887   0.0929  -0.58    0.0   0.0000   0.0000   0.0000   30.0000   30.0000   30.0000
2026/01/15 14:52:23.416   32.063242047   34.800522750    52.6224   4   0   0.3933   0.3662   0.7930   0.0981  -0.1763   0.0882  -0.58    0.0   0.0000   0.0000   0.0000   30.0000   30.0000   30.0000
2026/01/15 14:52:24.416   32.063247178   34.800517956    53.0361   4   0   0.3882   0.3648   0.7921   0.0999  -0.1727   0.0910  -0.58    0.0   0.0000   0.0000   0.0000   30.0000   30.0000   30.0000
2026/01/15 14:52:25.416   32.063254469   34.800522943    53.7805   4   0   0.3933   0.3662   0.7930   0.0982  -0.1761   0.0878  -0.58    0.0   0.0000   0.0000   0.0000   30.0000   30.0000   30.0000
2026/01/15 14:52:26.416   32.063241516   34.800529319    54.9335   4   0   0.3859   0.3636   0.7898   0.1059  -0.1775   0.1034  -0.58    0.0   0.0000   0.0000   0.0000   30.0000   30.0000   30.0000
2026/01/15 14:52:27.416   32.063251313   34.800528456    54.8934   4   0   0.3932   0.3662   0.7929   0.0983  -0.1758   0.0875  -0.58    0.0   0.0000   0.0000   0.0000   30.0000   30.0000   30.0000
2026/01/15 14:52:28.416   32.063243977   34.800519733    53.4595   4   0   0.3891   0.3657   0.7929   0.1036  -0.1752   0.0839  -0.58    0.0   0.0000   0.0000   0.0000   30.0000   30.0000   30.0000
2026/01/15 14:52:29.416   32.063247822   34.800522325    56.6077   4   0   0.3917   0.3642   0.7908   0.0917  -0.1692   0.0975  -0.58    0.0   0.0000   0.0000   0.0000   30.0000   30.0000   30.0000
2026/01/15 14:52:30.416   32.063242289   34.800517098    55.9407   4   0   0.3917   0.3642   0.7908   0.0918  -0.1691   0.0973  -0.58    0.0   0.0000   0.0000   0.0000   30.0000   30.0000   30.0000
2026/01/15 14:52:31.416   32.063242733   34.800519817    55.2705   4   0   0.3880   0.3648   0.7918   0.1002  -0.1718   0.0897  -0.58    0.0   0.0000   0.0000   0.0000   30.0000   30.0000   30.0000
2026/01/15 14:52:32.416   32.063242151   34.800531422    55.4935   4   0   0.3924   0.3652   0.7917   0.0952  -0.1720   0.0919  -0.58    0.0   0.0000   0.0000   0.0000   30.0000   30.0000   30.0000
2026/01/15 14:52:33.416   32.063247140   34.800529600    56.2698   4   0   0.3923   0.3652   0.7917   0.0953  -0.1719   0.0917  -0.58    0.0   0.0000   0.0000   0.0000   30.0000   30.0000   30.0000
2026/01/15 14:52:34.416   32.063239476   34.800522430    54.5311   4   0   0.3870   0.3639   0.7908   0.0968  -0.1685   0.0949  -0.58    0.0   0.0000   0.0000   0.0000   30.0000   30.0000   30.0000
2026/01/15 14:52:35.416   32.063245135   34.800527773    54.2038   4   0   0.3923   0.3652   0.7918   0.0954  -0.1717   0.0912  -0.58    0.0   0.0000   0.0000   0.0000   30.0000   30.0000   30.0000
2026/01/15 14:52:36.416   32.063251943   34.800532870    52.6126   4   0   0.3889   0.3657   0.7926   0.1040  -0.1742   0.0822  -0.58    0.0   0.0000   0.0000   0.0000   30.0000   30.0000   30.0000
2026/01/15 14:52:37.416   32.063246317   34.800525314    53.3085   4   0   0.3915   0.3642   0.7909   0.0922  -0.1684   0.0961  -0.58    0.0   0.0000   0.0000   0.0000   30.0000   30.0000   30.0000
2026/01/15 14:52:38.416   32.063241916   34.800518251    53.2580   4   0   0.3928   0.3656   0.7960   0.0864  -0.1768   0.1102  -0.58    0.0   0.0000   0.0000   0.0000   30.0000   30.0000   30.0000
2026/01/15 14:52:39.416   32.063245702   34.800520038    52.7556   4   0   0.3869   0.3639   0.7908   0.0971  -0.1679   0.0943  -0.58    0.0   0.0000   0.0000   0.0000   30.0000   30.0000   30.0000
2026/01/15 14:52:40.416   32.063240640   34.800523388    51.6800   4   0   0.3914   0.3642   0.7905   0.0924  -0.1679   0.0954  -0.58    0.0   0.0000   0.0000   0.0000   30.0000   30.0000   30.0000
2026/01/15 14:52:41.416   32.063239827   34.800526633    51.4813   4   0   0.3914   0.3642   0.7906   0.0924  -0.1678   0.0951  -0.58    0.0   0.0000   0.0000   0.0000   30.0000   30.0000   30.0000
2026/01/15 14:52:42.416   32.063248599   34.800532358    51.4032   4   0   0.3893   0.3664   0.7952   0.1019  -0.1777   0.0892  -0.58    0.0   0.0000   0.0000   0.0000   30.0000   30.0000   30.0000
2026/01/15 14:52:43.416   32.063238194   34.800526847    52.7630   4   0   0.3920   0.3649   0.7935   0.0897  -0.1721   0.1023  -0.58    0.0   0.0000   0.0000   0.0000   30.0000   30.0000   30.0000
2026/01/15 14:52:44.416   32.063242637   34.800524816    53.7005   4   0   0.3913   0.3642   0.7909   0.0926  -0.1676   0.0950  -0.58    0.0   0.0000   0.0000   0.0000   30.0000   30.0000   30.0000
2026/01/15 14:52:45.416   32.063233515   34.800526506    52.9704   4   0   0.3880   0.3653   0.7958   0.0922  -0.1757   0.1072  -0.58    0.0   0.0000   0.0000   0.0000   30.0000   30.0000   30.0000
2026/01/15 14:52:46.416   32.063238760   34.800528431    53.4293   4   0   0.3913   0.3642   0.7907   0.0927  -0.1673   0.0944  -0.58    0.0   0.0000   0.0000   0.0000   30.0000   30.0000   30.0000
2026/01/15 14:52:47.416   32.063237875   34.800524267    52.9365   4   0   0.3912   0.3642   0.7904   0.0928  -0.1671   0.0940  -0.58    0.0   0.0000   0.0000   0.0000   30.0000   30.0000   30.0000
2026/01/15 14:52:48.416   32.063236339   34.800514206    52.3170   4   0   0.3866   0.3638   0.7904   0.0976  -0.1667   0.0924  -0.58    0.0   0.0000   0.0000   0.0000   30.0000   30.0000   30.0000
2026/01/15 14:52:49.416   32.063233609   34.800523733    51.3814   4   0   0.3912   0.3642   0.7904   0.0929  -0.1668   0.0936  -0.58    0.0   0.0000   0.0000   0.0000   30.0000   30.0000   30.0000
2026/01/15 14:52:50.416   32.063236374   34.800529892    51.6584   4   0   0.3918   0.3649   0.7930   0.0902  -0.1710   0.1009  -0.58    0.0   0.0000   0.0000   0.0000   30.0000   30.0000   30.0000
2026/01/15 14:52:51.416   32.063231675   34.800521743    51.7863   4   0   0.3912   0.3642   0.7908   0.0930  -0.1668   0.0936  -0.58    0.0   0.0000   0.0000   0.0000   30.0000   30.0000   30.0000
2026/01/15 14:52:52.416   32.063227753   34.800525026    52.2614   4   0   0.3924   0.3656   0.7956   0.0874  -0.1751   0.1076  -0.58    0.0   0.0000   0.0000   0.0000   30.0000   30.0000   30.0000
2026/01/15 14:52:53.416   32.063230875   34.800529798    53.6094   4   0   0.3911   0.3642   0.7905   0.0931  -0.1665   0.0930  -0.58    0.0   0.0000   0.0000   0.0000   30.0000   30.0000   30.0000
2026/01/15 14:52:54.416   32.063228091   34.800523206    52.2463   4   0   0.3911   0.3642   0.7902   0.0932  -0.1662   0.0926  -0.58    0.0   0.0000   0.0000   0.0000   30.0000   30.0000   30.0000
2026/01/15 14:52:55.416   32.063221840   34.800530743    51.6076   4   0   0.3911   0.3642   0.7905   0.0932  -0.1662   0.0926  -0.58    0.0   0.0000   0.0000   0.0000   30.0000   30.0000   30.0000
2026/01/15 14:52:56.416   32.063225144   34.800533087    52.3236   4   0   0.3930   0.3665   0.7966   0.0912  -0.1778   0.1023  -0.58    0.0   0.0000   0.0000   0.0000   30.0000   30.0000   30.0000
2026/01/15 14:52:57.416   32.063225019   34.800525207    52.5787   4   0   0.3924   0.3642   0.7931   0.0930  -0.1667   0.1027  -0.58    0.0   0.0000   0.0000   0.0000   30.0000   30.0000   30.0000
2026/01/15 14:52:58.416   32.063216438   34.800525644    52.1012   4   0   0.3877   0.3655   0.7954   0.0998  -0.1793   0.1066  -0.58    0.0   0.0000   0.0000   0.0000   30.0000   30.0000   30.0000
2026/01/15 14:52:59.416   32.063221533   34.800523395    51.8532   4   0   0.3922   0.3656   0.7960   0.0879  -0.1745   0.1066  -0.58    0.0   0.0000   0.0000   0.0000   30.0000   30.0000   30.0000
2026/01/15 14:53:00.416   32.063223896   34.800512416    51.7983   4   0   0.3876   0.3652   0.7959   0.0931  -0.1742   0.1049  -0.58    0.0   0.0000   0.0000   0.0000   30.0000   30.0000   30.0000
2026/01/15 14:53:01.416   32.063223113   34.800522516    53.2606   4   0   0.3908   0.3637   0.7931   0.0968  -0.1759   0.1203  -0.58    0.0   0.0000   0.0000   0.0000   30.0000   30.0000   30.0000
2026/01/15 14:53:02.416   32.063220775   34.800527971    51.9960   4   0   0.3917   0.3663   0.7950   0.1015  -0.1844   0.1103  -0.58    0.0   0.0000   0.0000   0.0000   30.0000   30.0000   30.0000
2026/01/15 14:53:03.416   32.063236482   34.800528890    51.5551   4   0   0.3969   0.3689   0.8024   0.1076  -0.1933   0.1195  -0.58    0.0   0.0000   0.0000   0.0000   30.0000   30.0000   30.0000
2026/01/15 14:53:04.416   32.063231914   34.800533169    50.2689   4   0   0.3934   0.3666   0.7969   0.1078  -0.1955   0.0966  -0.58    0.0   0.0000   0.0000   0.0000   30.0000   30.0000   30.0000
2026/01/15 14:53:05.416   32.063230428   34.800532908    49.7880   4   0   0.3934   0.3688   0.7973   0.1094  -0.1915   0.0976  -0.58    0.0   0.0000   0.0000   0.0000   30.0000   30.0000   30.0000
2026/01/15 14:53:06.416   32.063232607   34.800521766    50.5880   4   0   0.3876   0.3658   0.7947   0.1066  -0.1835   0.1062  -0.58    0.0   0.0000   0.0000   0.0000   30.0000   30.0000   30.0000
2026/01/15 14:53:07.416   32.063231622   34.800513760    51.0200   4   0   0.3915   0.3663   0.7947   0.1018  -0.1838   0.1090  -0.58    0.0   0.0000   0.0000   0.0000   30.0000   30.0000   30.0000
2026/01/15 14:53:08.416   32.063228264   34.800514965    51.2002   4   0   0.3887   0.3669   0.7955   0.1107  -0.1865   0.0993  -0.58    0.0   0.0000   0.0000   0.0000   30.0000   30.0000   30.0000
2026/01/15 14:53:09.416   32.063231213   34.800515236    51.2715   4   0   0.3901   0.3647   0.7897   0.1073  -0.1753   0.0940  -0.58    0.0   0.0000   0.0000   0.0000   30.0000   30.0000   30.0000
2026/01/15 14:53:10.416   32.063222503   34.800529472    51.9916   4   0   0.3898   0.3644   0.7930   0.0952  -0.1785   0.1161  -0.58    0.0   0.0000   0.0000   0.0000   30.0000   30.0000   30.0000
2026/01/15 14:53:11.416   32.063231054   34.800530507    50.5003   4   0   0.3899   0.3681   0.7969   0.1148  -0.1896   0.0918  -0.58    0.0   0.0000   0.0000   0.0000   30.0000   30.0000   30.0000
2026/01/15 14:53:12.416   32.063232539   34.800524927    51.1013   4   0   0.3932   0.3681   0.7975   0.1030  -0.1851   0.0952  -0.58    0.0   0.0000   0.0000   0.0000   30.0000   30.0000   30.0000
2026/01/15 14:53:13.416   32.063226278   34.800523667    53.3217   4   0   0.3908   0.3650   0.7947   0.0923  -0.1758   0.1097  -0.58    0.0   0.0000   0.0000   0.0000   30.0000   30.0000   30.0000
2026/01/15 14:53:14.416   32.063228637   34.800523432    53.1235   4   0   0.3884   0.3666   0.7961   0.1049  -0.1811   0.0971  -0.58    0.0   0.0000   0.0000   0.0000   30.0000   30.0000   30.0000
2026/01/15 14:53:15.416   32.063227784   34.800526972    54.4972   4   0   0.3903   0.3654   0.7939   0.0986  -0.1809   0.1115  -0.58    0.0   0.0000   0.0000   0.0000   30.0000   30.0000   30.0000
2026/01/15 14:53:16.416   32.063221241   34.800524907    54.4926   4   0   0.3896   0.3644   0.7928   0.0955  -0.1777   0.1154  -0.58    0.0   0.0000   0.0000   0.0000   30.0000   30.0000   30.0000
2026/01/15 14:53:17.416   32.063223094   34.800529238    53.9441   4   0   0.3850   0.3641   0.7929   0.1000  -0.1773   0.1135  -0.58    0.0   0.0000   0.0000   0.0000   30.0000   30.0000   30.0000
2026/01/15 14:53:18.416   32.063230056   34.800528153    53.0087   4   0   0.3926   0.3664   0.7961   0.0929  -0.1749   0.0987  -0.58    0.0   0.0000   0.0000   0.0000   30.0000   30.0000   30.0000
2026/01/15 14:53:19.416   32.063230718   34.800523392    54.6554   4   0   0.3895   0.3644   0.7930   0.0957  -0.1774   0.1147  -0.58    0.0   0.0000   0.0000   0.0000   30.0000   30.0000   30.0000
2026/01/15 14:53:20.416   32.063230196   34.800524673    53.2442   4   0   0.3870   0.3652   0.7954   0.0944  -0.1718   0.1011  -0.58    0.0   0.0000   0.0000   0.0000   30.0000   30.0000   30.0000
2026/01/15 14:53:21.416   32.063235343   34.800524993    54.1626   4   0   0.3916   0.3655   0.7955   0.0894  -0.1719   0.1023  -0.58    0.0   0.0000   0.0000   0.0000   30.0000   30.0000   30.0000
2026/01/15 14:53:22.416   32.063228616   34.800519230    53.4057   4   0   0.3916   0.3655   0.7955   0.0895  -0.1718   0.1021  -0.58    0.0   0.0000   0.0000   0.0000   30.0000   30.0000   30.0000
2026/01/15 14:53:23.416   32.063231176   34.800521478    53.9903   4   0   0.3870   0.3651   0.7954   0.0946  -0.1714   0.1004  -0.58    0.0   0.0000   0.0000   0.0000   30.0000   30.0000   30.0000
2026/01/15 14:53:24.416   32.063233783   34.800515783    53.8498   4   0   0.3915   0.3655   0.7954   0.0896  -0.1715   0.1017  -0.58    0.0   0.0000   0.0000   0.0000   30.0000   30.0000   30.0000
2026/01/15 14:53:25.416   32.063231974   34.800520580    53.4767   4   0   0.3915   0.3655   0.7954   0.0897  -0.1714   0.1015  -0.58    0.0   0.0000   0.0000   0.0000   30.0000   30.0000   30.0000
2026/01/15 14:53:26.416   32.063235574   34.800515776    53.9240   4   0   0.3869   0.3651   0.7954   0.0948  -0.1710   0.0998  -0.58    0.0   0.0000   0.0000   0.0000   30.0000   30.0000   30.0000
2026/01/15 14:53:27.416   32.063232262   34.800528030    54.3624   4   0   0.3915   0.3655   0.7954   0.0898  -0.1712   0.1011  -0.58    0.0   0.0000   0.0000   0.0000   30.0000   30.0000   30.0000
2026/01/15 14:53:28.416   32.063236456   34.800523440    54.3297   4   0   0.3914   0.3655   0.7953   0.0899  -0.1710   0.1009  -0.58    0.0   0.0000   0.0000   0.0000   30.0000   30.0000   30.0000
2026/01/15 14:53:29.416   32.063235901   34.800519583    53.7622   4   0   0.3868   0.3651   0.7953   0.0949  -0.1707   0.0992  -0.58    0.0   0.0000   0.0000   0.0000   30.0000   30.0000   30.0000
2026/01/15 14:53:30.416   32.063236337   34.800517694    53.6479   4   0   0.3914   0.3654   0.7953   0.0900  -0.1708   0.1005  -0.58    0.0   0.0000   0.0000   0.0000   30.0000   30.0000   30.0000
2026/01/15 14:53:31.416   32.063234046   34.800517741    53.7363   4   0   0.3914   0.3654   0.7951   0.0901  -0.1707   0.1003  -0.58    0.0   0.0000   0.0000   0.0000   30.0000   30.0000   30.0000
2026/01/15 14:53:32.416   32.063239440   34.800514664    52.1221   4   0   0.3845   0.3583   0.7913   0.0973  -0.1833   0.1086  -0.58    0.0   0.0000   0.0000   0.0000   30.0000   30.0000   30.0000
2026/01/15 14:53:33.416   32.063237459   34.800524401    53.2326   4   0   0.3888   0.3589   0.7912   0.0913  -0.1835   0.1091  -0.58    0.0   0.0000   0.0000   0.0000   30.0000   30.0000   30.0000
2026/01/15 14:53:34.416   32.063251191   34.800534305    53.7744   4   0   0.3867   0.3604   0.7926   0.1056  -0.1881   0.0991  -0.58    0.0   0.0000   0.0000   0.0000   30.0000   30.0000   30.0000
2026/01/15 14:53:35.416   32.063263957   34.800530283    55.3726   4   0   0.3852   0.3610   0.7945   0.0978  -0.1840   0.1152  -0.58    0.0   0.0000   0.0000   0.0000   30.0000   30.0000   30.0000
2026/01/15 14:53:36.416   32.063300403   34.800480074    56.3666   4   0   0.3878   0.3617   0.7976   0.1104  -0.1940   0.0922  -0.58    0.0   0.0000   0.0000   0.0000   30.0000   30.0000   30.0000
2026/01/15 14:53:37.416   32.063248933   34.800525299    57.2116   4   0   0.3921   0.3712   0.7951   0.1234  -0.1717   0.1101  -0.58    0.0   0.0000   0.0000   0.0000   30.0000   30.0000   30.0000
2026/01/15 14:53:38.416   32.063287223   34.800491653    54.8737   4   0   0.3965   0.3722   0.8003   0.0703  -0.1966   0.0956  -0.58    0.0   0.0000   0.0000   0.0000   30.0000   30.0000   30.0000
2026/01/15 14:53:39.416   32.063315476   34.800464225    49.6530   4   0   0.3850   0.3629   0.8486   0.1033  -0.2069   0.0921  -0.58    0.0   0.0000   0.0000   0.0000   30.0000   30.0000   30.0000
2026/01/15 14:53:40.416   32.063313842   34.800463748    54.6301   4   0   0.3844   0.3575   0.7900   0.0996  -0.1728   0.0848  -0.58    0.0   0.0000   0.0000   0.0000   30.0000   30.0000   30.0000
2026/01/15 14:53:41.416   32.063258835   34.800533588    56.6026   4   0   0.3867   0.3611   0.7948   0.1130  -0.1904   0.0813  -0.58    0.0   0.0000   0.0000   0.0000   30.0000   30.0000   30.0000
2026/01/15 14:53:42.416   32.063253105   34.800550459    54.1628   4   0   0.3867   0.3633   0.7914   0.1082  -0.1681   0.0715  -0.58    0.0   0.0000   0.0000   0.0000   30.0000   30.0000   30.0000
2026/01/15 14:53:43.416   32.063257208   34.800534057    56.1747   4   0   0.3862   0.3623   0.7945   0.1169  -0.1929   0.0600  -0.58    0.0   0.0000   0.0000   0.0000   30.0000   30.0000   30.0000
2026/01/15 14:53:44.416   32.063255360   34.800533471    55.5757   4   0   0.3862   0.3623   0.7944   0.1170  -0.1930   0.0596  -0.58    0.0   0.0000   0.0000   0.0000   30.0000   30.0000   30.0000
2026/01/15 14:53:45.416   32.063247184   34.800538356    55.4437   4   0   0.3862   0.3623   0.7953   0.1170  -0.1930   0.0597  -0.58    0.0   0.0000   0.0000   0.0000   30.0000   30.0000   30.0000
2026/01/15 14:53:46.416   32.063254981   34.800543120    55.8378   4   0   0.4019   0.3783   0.8142   0.1202  -0.1804   0.0899  -0.58    0.0   0.0000   0.0000   0.0000   30.0000   30.0000   30.0000
2026/01/15 14:53:47.416   32.063245433   34.800535161    55.0194   4   0   0.3861   0.3623   0.7954   0.1172  -0.1929   0.0589  -0.58    0.0   0.0000   0.0000   0.0000   30.0000   30.0000   30.0000
2026/01/15 14:53:48.416   32.063249123   34.800540519    54.3882   4   0   0.3904   0.3652   0.7985   0.1256  -0.1999   0.0494  -0.58    0.0   0.0000   0.0000   0.0000   30.0000   30.0000   30.0000
2026/01/15 14:53:49.416   32.063251802   34.800537913    54.5713   4   0   0.3887   0.3652   0.7972   0.1256  -0.2001   0.0240  -0.58    0.0   0.0000   0.0000   0.0000   30.0000   30.0000   30.0000
2026/01/15 14:53:50.416   32.063265502   34.800527317    55.2922   4   0   0.4073   0.3880   0.7971  -0.0132  -0.2031   0.0411  -0.58    0.0   0.0000   0.0000   0.0000   30.0000   30.0000   30.0000
2026/01/15 14:53:51.416   32.063251788   34.800549511    54.7575   4   0   0.3886   0.3652   0.7970   0.1257  -0.1998   0.0216  -0.58    0.0   0.0000   0.0000   0.0000   30.0000   30.0000   30.0000
2026/01/15 14:53:52.416   32.063249156   34.800553008    53.8611   4   0   0.3903   0.3652   0.7985   0.1258  -0.1997   0.0475  -0.58    0.0   0.0000   0.0000   0.0000   30.0000   30.0000   30.0000
2026/01/15 14:53:53.416   32.063250569   34.800552771    54.7914   4   0   0.3886   0.3651   0.7971   0.1258  -0.1997   0.0204  -0.58    0.0   0.0000   0.0000   0.0000   30.0000   30.0000   30.0000
2026/01/15 14:53:54.416   32.063249816   34.800541508    55.2170   4   0   0.3885   0.3651   0.7969   0.1259  -0.1995   0.0187  -0.58    0.0   0.0000   0.0000   0.0000   30.0000   30.0000   30.0000
2026/01/15 14:53:55.416   32.063259315   34.800545965    54.9278   4   0   0.3885   0.3651   0.7971   0.1260  -0.1993   0.0182  -0.58    0.0   0.0000   0.0000   0.0000   30.0000   30.0000   30.0000
2026/01/15 14:53:56.416   32.063251625   34.800548662    53.2985   4   0   0.4009   0.3765   0.7988   0.1393  -0.1783   0.0486  -0.58    0.0   0.0000   0.0000   0.0000   30.0000   30.0000   30.0000
2026/01/15 14:53:57.416   32.063243882   34.800541895    53.6964   4   0   0.3905   0.3617   0.7937   0.1192  -0.1861   0.0860  -0.58    0.0   0.0000   0.0000   0.0000   30.0000   30.0000   30.0000
2026/01/15 14:53:58.416   32.063245943   34.800558657    51.3611   4   0   0.3874   0.3617   0.7903   0.1201  -0.1853   0.0591  -0.58    0.0   0.0000   0.0000   0.0000   30.0000   30.0000   30.0000
2026/01/15 14:53:59.416   32.063254647   34.800544850    54.7597   4   0   0.4060   0.3826   0.8087   0.1324  -0.1898   0.0847  -0.58    0.0   0.0000   0.0000   0.0000   30.0000   30.0000   30.0000
2026/01/15 14:54:00.416   32.063307478   34.800479967    57.5605   4   0   0.3869   0.3606   0.7862   0.1220  -0.1790   0.0439  -0.58    0.0   0.0000   0.0000   0.0000   30.0000   30.0000   30.0000
2026/01/15 14:54:01.416   32.063262079   34.800545290    56.7875   4   0   0.4127   0.3864   0.7936  -0.0504  -0.1948   0.0927  -0.58    0.0   0.0000   0.0000   0.0000   30.0000   30.0000   30.0000
2026/01/15 14:54:02.416   32.063244564   34.800568947    54.0427   4   0   0.3877   0.3618   0.7900   0.1190  -0.1856   0.0626  -0.58    0.0   0.0000   0.0000   0.0000   30.0000   30.0000   30.0000
2026/01/15 14:54:03.416   32.063286048   34.800513986    53.9900   4   0   0.3985   0.3742   0.7954   0.0738  -0.1916   0.0725  -0.58    0.0   0.0000   0.0000   0.0000   30.0000   30.0000   30.0000
2026/01/15 14:54:04.416   32.063260205   34.800538186    52.0469   4   0   0.4080   0.3864   0.7946  -0.0554  -0.1965   0.0866  -0.58    0.0   0.0000   0.0000   0.0000   30.0000   30.0000   30.0000
2026/01/15 14:54:05.416   32.063263528   34.800536578    51.8203   4   0   0.3885   0.3631   0.7944   0.1158  -0.1921   0.0769  -0.58    0.0   0.0000   0.0000   0.0000   30.0000   30.0000   30.0000
2026/01/15 14:54:06.416   32.063285112   34.800506353    55.6109   4   0   0.3971   0.3735   0.7943   0.0786  -0.1938   0.0811  -0.58    0.0   0.0000   0.0000   0.0000   30.0000   30.0000   30.0000
2026/01/15 14:54:07.416   32.063260838   34.800518592    57.9135   4   0   0.3890   0.3608   0.7906   0.1106  -0.1844   0.0873  -0.58    0.0   0.0000   0.0000   0.0000   30.0000   30.0000   30.0000
2026/01/15 14:54:08.416   32.063308492   34.800488968    52.9815   4   0   0.3928   0.3652   0.7978   0.1164  -0.1837   0.0743  -0.58    0.0   0.0000   0.0000   0.0000   30.0000   30.0000   30.0000
2026/01/15 14:54:09.416   32.063249955   34.800548064    52.2535   4   0   0.3899   0.3636   0.7960   0.1155  -0.1857   0.0818  -0.58    0.0   0.0000   0.0000   0.0000   30.0000   30.0000   30.0000
2026/01/15 14:54:10.416   32.063242971   34.800551984    50.5441   4   0   0.3906   0.3636   0.7946   0.1136  -0.1892   0.0847  -0.58    0.0   0.0000   0.0000   0.0000   30.0000   30.0000   30.0000
2026/01/15 14:54:11.416   32.063249964   34.800536661    51.4731   4   0   0.3901   0.3652   0.7997   0.1135  -0.1848   0.0837  -0.58    0.0   0.0000   0.0000   0.0000   30.0000   30.0000   30.0000
2026/01/15 14:54:12.416   32.063250951   34.800547967    54.3693   4   0   0.3881   0.3641   0.7936   0.1161  -0.1781   0.0573  -0.58    0.0   0.0000   0.0000   0.0000   30.0000   30.0000   30.0000
2026/01/15 14:54:13.416   32.063252562   34.800539161    52.7581   4   0   0.3917   0.3652   0.8021   0.1131  -0.1849   0.0965  -0.58    0.0   0.0000   0.0000   0.0000   30.0000   30.0000   30.0000
2026/01/15 14:54:14.416   32.063234203   34.800518928    51.4470   4   0   0.3864   0.3578   0.7940   0.0997  -0.1779   0.1172  -0.58    0.0   0.0000   0.0000   0.0000   30.0000   30.0000   30.0000
2026/01/15 14:54:15.416   32.063241976   34.800530446    51.8412   4   0   0.3862   0.3595   0.7944   0.0989  -0.1666   0.1095  -0.58    0.0   0.0000   0.0000   0.0000   30.0000   30.0000   30.0000
2026/01/15 14:54:16.416   32.063246402   34.800529201    52.3801   4   0   0.3844   0.3560   0.7861   0.1063  -0.1664   0.0982  -0.58    0.0   0.0000   0.0000   0.0000   30.0000   30.0000   30.0000
2026/01/15 14:54:17.416   32.063245021   34.800529956    53.8291   4   0   0.3844   0.3560   0.7857   0.1064  -0.1662   0.0979  -0.58    0.0   0.0000   0.0000   0.0000   30.0000   30.0000   30.0000
2026/01/15 14:54:18.416   32.063245893   34.800530180    53.9762   4   0   0.3885   0.3564   0.7857   0.1016  -0.1660   0.0968  -0.58    0.0   0.0000   0.0000   0.0000   30.0000   30.0000   30.0000
2026/01/15 14:54:19.416   32.063240527   34.800530042    53.4785   4   0   0.3844   0.3560   0.7860   0.1065  -0.1661   0.0976  -0.58    0.0   0.0000   0.0000   0.0000   30.0000   30.0000   30.0000
2026/01/15 14:54:20.416   32.063242305   34.800530360    52.5205   4   0   0.3860   0.3595   0.7940   0.0992  -0.1659   0.1084  -0.58    0.0   0.0000   0.0000   0.0000   30.0000   30.0000   30.0000
2026/01/15 14:54:21.416   32.063239108   34.800525624    52.1988   4   0   0.3843   0.3560   0.7860   0.1066  -0.1658   0.0972  -0.58    0.0   0.0000   0.0000   0.0000   30.0000   30.0000   30.0000
2026/01/15 14:54:22.416   32.063246103   34.800529321    51.9526   4   0   0.3884   0.3564   0.7858   0.1018  -0.1656   0.0962  -0.58    0.0   0.0000   0.0000   0.0000   30.0000   30.0000   30.0000
2026/01/15 14:54:23.416   32.063235781   34.800534932    51.1045   4   0   0.3858   0.3573   0.7907   0.1016  -0.1738   0.1115  -0.58    0.0   0.0000   0.0000   0.0000   30.0000   30.0000   30.0000
2026/01/15 14:54:24.416   32.063235129   34.800527305    51.8238   4   0   0.3843   0.3559   0.7858   0.1067  -0.1656   0.0967  -0.58    0.0   0.0000   0.0000   0.0000   30.0000   30.0000   30.0000
2026/01/15 14:54:25.416   32.063244895   34.800523359    52.8483   4   0   0.3884   0.3564   0.7853   0.1020  -0.1651   0.0952  -0.58    0.0   0.0000   0.0000   0.0000   30.0000   30.0000   30.0000
2026/01/15 14:54:26.416   32.063237561   34.800535919    53.0022   4   0   0.3812   0.3559   0.7816   0.1077  -0.1643   0.0735  -0.58    0.0   0.0000   0.0000   0.0000   30.0000   30.0000   30.0000
2026/01/15 14:54:27.416   32.063246922   34.800530413    52.9944   4   0   0.3899   0.3577   0.7905   0.0966  -0.1733   0.1102  -0.58    0.0   0.0000   0.0000   0.0000   30.0000   30.0000   30.0000
2026/01/15 14:54:28.416   32.063245689   34.800533069    52.4632   4   0   0.3842   0.3559   0.7857   0.1069  -0.1651   0.0959  -0.58    0.0   0.0000   0.0000   0.0000   30.0000   30.0000   30.0000
2026/01/15 14:54:29.416   32.063241569   34.800522668    51.4669   4   0   0.3883   0.3564   0.7855   0.1022  -0.1647   0.0946  -0.58    0.0   0.0000   0.0000   0.0000   30.0000   30.0000   30.0000
2026/01/15 14:54:30.416   32.063235714   34.800527994    50.9817   4   0   0.3841   0.3559   0.7855   0.1070  -0.1648   0.0954  -0.58    0.0   0.0000   0.0000   0.0000   30.0000   30.0000   30.0000
2026/01/15 14:54:31.416   32.063238929   34.800532159    50.9969   4   0   0.3882   0.3564   0.7857   0.1023  -0.1646   0.0944  -0.58    0.0   0.0000   0.0000   0.0000   30.0000   30.0000   30.0000
2026/01/15 14:54:32.416   32.063239855   34.800529673    50.9901   4   0   0.3856   0.3573   0.7907   0.1021  -0.1728   0.1099  -0.58    0.0   0.0000   0.0000   0.0000   30.0000   30.0000   30.0000
2026/01/15 14:54:33.416   32.063229350   34.800529821    52.1685   4   0   0.3862   0.3596   0.7884   0.1092  -0.1603   0.0843  -0.58    0.0   0.0000   0.0000   0.0000   30.0000   30.0000   30.0000
2026/01/15 14:54:34.416   32.063232156   34.800535775    51.2457   4   0   0.3865   0.3578   0.7915   0.0997  -0.1741   0.1126  -0.58    0.0   0.0000   0.0000   0.0000   30.0000   30.0000   30.0000
2026/01/15 14:54:35.416   32.063223166   34.800539912    50.5250   4   0   0.3877   0.3605   0.7976   0.0986  -0.1738   0.1094  -0.58    0.0   0.0000   0.0000   0.0000   30.0000   30.0000   30.0000
2026/01/15 14:54:36.416   32.063234386   34.800529170    51.1457   4   0   0.3881   0.3592   0.7972   0.0939  -0.1824   0.1263  -0.58    0.0   0.0000   0.0000   0.0000   30.0000   30.0000   30.0000
2026/01/15 14:54:37.416   32.063226440   34.800532173    50.2844   4   0   0.3862   0.3581   0.7950   0.0996  -0.1779   0.1173  -0.58    0.0   0.0000   0.0000   0.0000   30.0000   30.0000   30.0000
2026/01/15 14:54:38.416   32.063236732   34.800533859    51.3684   4   0   0.3889   0.3572   0.7897   0.0995  -0.1696   0.1032  -0.58    0.0   0.0000   0.0000   0.0000   30.0000   30.0000   30.0000
2026/01/15 14:54:39.416   32.063242940   34.800534188    52.7041   4   0   0.3908   0.3583   0.7922   0.0939  -0.1741   0.1130  -0.58    0.0   0.0000   0.0000   0.0000   30.0000   30.0000   30.0000
2026/01/15 14:54:40.416   32.063241005   34.800516739    51.3311   4   0   0.3900   0.3652   0.8130   0.0801  -0.1945   0.1428  -0.58    0.0   0.0000   0.0000   0.0000   30.0000   30.0000   30.0000
2026/01/15 14:54:41.416   32.063248796   34.800527425    52.6036   4   0   0.3919   0.3617   0.8042   0.0860  -0.1925   0.1296  -0.58    0.0   0.0000   0.0000   0.0000   30.0000   30.0000   30.0000
2026/01/15 14:54:42.416   32.063232478   34.800530497    51.0618   4   0   0.3883   0.3576   0.7901   0.1164  -0.1570   0.1131  -0.58    0.0   0.0000   0.0000   0.0000   30.0000   30.0000   30.0000
2026/01/15 14:54:43.416   32.063242413   34.800527072    50.6768   4   0   0.3932   0.3626   0.8071   0.0966  -0.1861   0.1379  -0.58    0.0   0.0000   0.0000   0.0000   30.0000   30.0000   30.0000
2026/01/15 14:54:44.416   32.063238135   34.800539939    51.6363   4   0   0.3879   0.3610   0.8018   0.1054  -0.1785   0.1288  -0.58    0.0   0.0000   0.0000   0.0000   30.0000   30.0000   30.0000
2026/01/15 14:54:45.416   32.063240289   34.800537620    51.3866   4   0   0.3879   0.3610   0.8016   0.1054  -0.1785   0.1285  -0.58    0.0   0.0000   0.0000   0.0000   30.0000   30.0000   30.0000
2026/01/15 14:54:46.416   32.063242987   34.800531447    51.3628   4   0   0.3914   0.3620   0.8077   0.0860  -0.1960   0.1333  -0.58    0.0   0.0000   0.0000   0.0000   30.0000   30.0000   30.0000
2026/01/15 14:54:47.416   32.063239658   34.800536287    52.2651   4   0   0.3884   0.3616   0.8048   0.1033  -0.1825   0.1340  -0.58    0.0   0.0000   0.0000   0.0000   30.0000   30.0000   30.0000
2026/01/15 14:54:48.416   32.063238453   34.800541099    50.2062   4   0   0.3913   0.3611   0.8018   0.1028  -0.1773   0.1239  -0.58    0.0   0.0000   0.0000   0.0000   30.0000   30.0000   30.0000
2026/01/15 14:54:49.416   32.063238669   34.800542331    49.6420   4   0   0.3854   0.3596   0.7989   0.0991  -0.1836   0.1164  -0.58    0.0   0.0000   0.0000   0.0000   30.0000   30.0000   30.0000
2026/01/15 14:54:50.416   32.063237694   34.800539078    49.6709   4   0   0.3859   0.3602   0.8015   0.0968  -0.1876   0.1222  -0.58    0.0   0.0000   0.0000   0.0000   30.0000   30.0000   30.0000
2026/01/15 14:54:51.416   32.063227004   34.800549751    51.0598   4   0   0.3853   0.3596   0.7991   0.0992  -0.1835   0.1163  -0.58    0.0   0.0000   0.0000   0.0000   30.0000   30.0000   30.0000
2026/01/15 14:54:52.416   32.063240374   34.800544431    52.9278   4   0   0.3963   0.3661   0.8102   0.0990  -0.1835   0.1504  -0.58    0.0   0.0000   0.0000   0.0000   30.0000   30.0000   30.0000
2026/01/15 14:54:53.416   32.063243454   34.800545742    55.1394   4   0   0.3836   0.3559   0.7866   0.1081  -0.1627   0.0917  -0.58    0.0   0.0000   0.0000   0.0000   30.0000   30.0000   30.0000
2026/01/15 14:54:54.416   32.063243350   34.800531193    50.6949   4   0   0.3892   0.3577   0.7907   0.0983  -0.1704   0.1052  -0.58    0.0   0.0000   0.0000   0.0000   30.0000   30.0000   30.0000
2026/01/15 14:54:55.416   32.063239408   34.800522505    52.0293   4   0   0.3818   0.3572   0.7867   0.1050  -0.1690   0.0835  -0.58    0.0   0.0000   0.0000   0.0000   30.0000   30.0000   30.0000
2026/01/15 14:54:56.416   32.063203948   34.800535475    51.9068   4   0   0.3886   0.3597   0.7946   0.0915  -0.1777   0.1063  -0.58    0.0   0.0000   0.0000   0.0000   30.0000   30.0000   30.0000
2026/01/15 14:54:57.416   32.063235178   34.800544572    55.9423   4   0   0.4533   0.4031   0.8776   0.2350   0.2049   0.3157  -0.58    0.0   0.0000   0.0000   0.0000   30.0000   30.0000   30.0000
2026/01/15 14:54:58.416   32.063200200   34.800515624    52.0315   4   0   0.4774   0.4158   0.9090   0.2596   0.2562   0.3608  -0.58    0.0   0.0000   0.0000   0.0000   30.0000   30.0000   30.0000
2026/01/15 14:54:59.416   32.063186023   34.800516936    52.5108   4   0   0.4746   0.4164   0.9022   0.2541   0.2432   0.3533  -0.58    0.0   0.0000   0.0000   0.0000   30.0000   30.0000   30.0000
2026/01/15 14:55:00.416   32.063205688   34.800501566    54.1060   4   0   0.3870   0.3631   0.8019   0.1148  -0.1504   0.1157  -0.58    0.0   0.0000   0.0000   0.0000   30.0000   30.0000   30.0000
2026/01/15 14:55:01.416   32.063212025   34.800481427    54.5505   4   0   0.4801   0.4294   0.9329   0.2585   0.2567   0.3740  -0.58    0.0   0.0000   0.0000   0.0000   30.0000   30.0000   30.0000
2026/01/15 14:55:02.416   32.063195851   34.800484456    55.5941   4   0   0.4785   0.4275   0.9124   0.2671   0.2493   0.3639  -0.58    0.0   0.0000   0.0000   0.0000   30.0000   30.0000   30.0000
2026/01/15 14:55:03.416   32.063198258   34.800498574    53.8836   4   0   0.3920   0.3756   0.8246   0.1145  -0.1664   0.1527  -0.58    0.0   0.0000   0.0000   0.0000   30.0000   30.0000   30.0000
2026/01/15 14:55:04.416   32.063212184   34.800502400    55.5929   4   0   0.4795   0.4298   0.9194   0.2590   0.2605   0.3613  -0.58    0.0   0.0000   0.0000   0.0000   30.0000   30.0000   30.0000
2026/01/15 14:55:05.416   32.063216328   34.800490162    55.8161   4   0   0.4830   0.4336   0.9324   0.2675   0.2593   0.3797  -0.58    0.0   0.0000   0.0000   0.0000   30.0000   30.0000   30.0000
2026/01/15 14:55:06.416   32.063199409   34.800501438    55.7870   4   0   0.3899   0.3712   0.8230   0.1119  -0.1596   0.1468  -0.58    0.0   0.0000   0.0000   0.0000   30.0000   30.0000   30.0000
2026/01/15 14:55:07.416   32.063205197   34.800496503    57.4235   4   0   0.4808   0.4346   0.9208   0.2653   0.2545   0.3705  -0.58    0.0   0.0000   0.0000   0.0000   30.0000   30.0000   30.0000
2026/01/15 14:55:08.416   32.063200031   34.800483666    54.3971   4   0   0.3919   0.3705   0.8131   0.1125  -0.1516   0.1271  -0.58    0.0   0.0000   0.0000   0.0000   30.0000   30.0000   30.0000
2026/01/15 14:55:09.416   32.063203943   34.800513188    56.2362   4   0   0.3903   0.3728   0.8196   0.1082  -0.1674   0.1474  -0.58    0.0   0.0000   0.0000   0.0000   30.0000   30.0000   30.0000
2026/01/15 14:55:10.416   32.063179827   34.800488196    52.2095   4   0   0.4676   0.4148   0.8903   0.2541   0.2451   0.3362  -0.58    0.0   0.0000   0.0000   0.0000   30.0000   30.0000   30.0000
2026/01/15 14:55:11.416   32.063202369   34.800490519    52.3993   4   0   0.4468   0.4047   0.8670   0.2357   0.2143   0.2976  -0.58    0.0   0.0000   0.0000   0.0000   30.0000   30.0000   30.0000
2026/01/15 14:55:12.416   32.063216188   34.800513478    53.5050   4   0   0.3817   0.3586   0.7914   0.1036  -0.1720   0.0879  -0.58    0.0   0.0000   0.0000   0.0000   30.0000   30.0000   30.0000
2026/01/15 14:55:13.416   32.063214876   34.800494020    52.4217   4   0   0.3830   0.3622   0.7962   0.0958  -0.1727   0.0941  -0.58    0.0   0.0000   0.0000   0.0000   30.0000   30.0000   30.0000
2026/01/15 14:55:14.416   32.063212987   34.800494393    51.5312   4   0   0.3810   0.3591   0.7881   0.1049  -0.1565   0.0655  -0.58    0.0   0.0000   0.0000   0.0000   30.0000   30.0000   30.0000
2026/01/15 14:55:15.416   32.063206970   34.800484821    51.7563   4   0   0.3827   0.3618   0.7971   0.0975  -0.1686   0.0924  -0.58    0.0   0.0000   0.0000   0.0000   30.0000   30.0000   30.0000
2026/01/15 14:55:16.416   32.063208607   34.800498936    53.6007   4   0   0.4528   0.4120   0.8807   0.2408   0.2161   0.3168  -0.58    0.0   0.0000   0.0000   0.0000   30.0000   30.0000   30.0000
2026/01/15 14:55:17.416   32.063192913   34.800523638    52.4616   4   0   0.4083   0.3702   0.8623   0.0936  -0.1777   0.2332  -0.58    0.0   0.0000   0.0000   0.0000   30.0000   30.0000   30.0000
2026/01/15 14:55:18.416   32.063178913   34.800502669    51.0065   4   0   0.3872   0.3831   0.8273   0.1233  -0.0092   0.1330  -0.58    0.0   0.0000   0.0000   0.0000   30.0000   30.0000   30.0000
2026/01/15 14:55:19.416   32.063201690   34.800506881    54.4796   4   0   0.4523   0.4155   0.8849   0.2429   0.2288   0.3168  -0.58    0.0   0.0000   0.0000   0.0000   30.0000   30.0000   30.0000
2026/01/15 14:55:20.416   32.063211230   34.800476731    53.6690   4   0   0.4610   0.4155   0.8900   0.2577   0.2531   0.3318  -0.58    0.0   0.0000   0.0000   0.0000   30.0000   30.0000   30.0000
2026/01/15 14:55:21.416   32.063182569   34.800431295    53.3016   4   0   0.4610   0.4155   0.8886   0.2577   0.2526   0.3311  -0.58    0.0   0.0000   0.0000   0.0000   30.0000   30.0000   30.0000
2026/01/15 14:55:22.416   32.063199914   34.800436562    53.0116   4   0   0.4481   0.4028   0.8702   0.2349   0.2008   0.3033  -0.58    0.0   0.0000   0.0000   0.0000   30.0000   30.0000   30.0000
2026/01/15 14:55:23.416   32.063187652   34.800410568    51.3836   4   0   0.4526   0.4142   0.8740   0.2490   0.2038   0.2918  -0.58    0.0   0.0000   0.0000   0.0000   30.0000   30.0000   30.0000
2026/01/15 14:55:24.416   32.063180439   34.800414482    51.8566   4   0   0.4518   0.4087   0.8661   0.2469   0.1869   0.2866  -0.58    0.0   0.0000   0.0000   0.0000   30.0000   30.0000   30.0000
2026/01/15 14:55:25.416   32.063216256   34.800431433    56.1175   4   0   0.3811   0.3622   0.7933   0.1139  -0.1648   0.0211  -0.58    0.0   0.0000   0.0000   0.0000   30.0000   30.0000   30.0000
2026/01/15 14:55:26.416   32.063207811   34.800428431    56.8079   4   0   0.3831   0.3625   0.7953   0.0959  -0.1588   0.0692  -0.58    0.0   0.0000   0.0000   0.0000   30.0000   30.0000   30.0000
2026/01/15 14:55:27.416   32.063224328   34.800434362    56.6725   4   0   0.3921   0.3619   0.7981   0.1163  -0.1320   0.1110  -0.58    0.0   0.0000   0.0000   0.0000   30.0000   30.0000   30.0000
2026/01/15 14:55:28.416   32.063203045   34.800432743    50.8445   4   0   0.4667   0.4164   0.8880   0.2536   0.2441   0.3330  -0.58    0.0   0.0000   0.0000   0.0000   30.0000   30.0000   30.0000
2026/01/15 14:55:29.416   32.063196632   34.800444759    52.8363   4   0   0.4624   0.4125   0.8919   0.2534   0.2291   0.3347  -0.58    0.0   0.0000   0.0000   0.0000   30.0000   30.0000   30.0000
2026/01/15 14:55:30.416   32.063226713   34.800492326    56.9144   4   0   0.4512   0.4081   0.9075   0.2347  -0.3134  -0.2908  -0.58    0.0   0.0000   0.0000   0.0000   30.0000   30.0000   30.0000
2026/01/15 14:55:31.416   32.063184825   34.800444076    54.6323   4   0   0.5261   0.4609   0.9643   0.3387  -0.1303   0.0954  -0.58    0.0   0.0000   0.0000   0.0000   30.0000   30.0000   30.0000
2026/01/15 14:55:32.416   32.063188408   34.800454109    60.5626   4   0   0.3832   0.3798   0.8203   0.1210  -0.0124   0.1006  -0.58    0.0   0.0000   0.0000   0.0000   30.0000   30.0000   30.0000
2026/01/15 14:55:33.416   32.063206137   34.800471065    61.4791   4   0   0.3856   0.3833   0.8141   0.1136   0.0329   0.0893  -0.58    0.0   0.0000   0.0000   0.0000   30.0000   30.0000   30.0000
2026/01/15 14:55:34.416   32.063167238   34.800487707    62.9490   4   0   0.3911   0.4020   0.8281   0.1446   0.1120   0.1040  -0.58    0.0   0.0000   0.0000   0.0000   30.0000   30.0000   30.0000
2026/01/15 14:55:35.416   32.063113201   34.800530344    62.8402   4   0   0.3861   0.4146   0.8379   0.1079   0.1177   0.0655  -0.58    0.0   0.0000   0.0000   0.0000   30.0000   30.0000   30.0000
2026/01/15 14:55:36.416   32.063056516   34.800483846    48.7950   4   0   0.3886   0.3993   0.8249   0.1074   0.0705   0.0389  -0.58    0.0   0.0000   0.0000   0.0000   30.0000   30.0000   30.0000
2026/01/15 14:55:37.416   32.063006361   34.800455152    52.3084   4   0   0.3878   0.3700   0.7985   0.0952  -0.1292  -0.0570  -0.58    0.0   0.0000   0.0000   0.0000   30.0000   30.0000   30.0000
2026/01/15 14:55:38.416   32.062965384   34.800459647    55.3599   4   0   0.4532   0.3702   0.8442  -0.0931  -0.0124  -0.2556  -0.58    0.0   0.0000   0.0000   0.0000   30.0000   30.0000   30.0000
2026/01/15 14:55:39.416   32.062916468   34.800518445    54.5261   4   0   0.4044   0.3633   0.8406   0.0614  -0.1846   0.1879  -0.58    0.0   0.0000   0.0000   0.0000   30.0000   30.0000   30.0000
2026/01/15 14:55:40.416   32.062897257   34.800532359    58.2127   4   0   0.3918   0.3641   0.8032   0.0831  -0.1450   0.0585  -0.58    0.0   0.0000   0.0000   0.0000   30.0000   30.0000   30.0000
2026/01/15 14:55:41.416   32.062874537   34.800535233    54.3224   4   0   0.4475   0.3676   0.8357  -0.0798  -0.0589  -0.2507  -0.58    0.0   0.0000   0.0000   0.0000   30.0000   30.0000   30.0000
2026/01/15 14:55:42.416   32.062834306   34.800577632    54.9878   4   0   0.3811   0.3608   0.7869   0.1125  -0.1406   0.0371  -0.58    0.0   0.0000   0.0000   0.0000   30.0000   30.0000   30.0000
2026/01/15 14:55:43.416   32.062826522   34.800622107    55.4539   4   0   0.3814   0.3592   0.7891   0.1026  -0.1605   0.0565  -0.58    0.0   0.0000   0.0000   0.0000   30.0000   30.0000   30.0000
2026/01/15 14:55:44.416   32.062856564   34.800646702    53.6864   4   0   0.3820   0.3623   0.8004   0.0978  -0.1576   0.0587  -0.58    0.0   0.0000   0.0000   0.0000   30.0000   30.0000   30.0000
2026/01/15 14:55:45.416   32.062853572   34.800668663    51.1322   4   0   0.3798   0.3790   0.8110   0.1145   0.0604   0.0613  -0.58    0.0   0.0000   0.0000   0.0000   30.0000   30.0000   30.0000
2026/01/15 14:55:46.416   32.062860134   34.800650079    49.7571   4   0   0.3834   0.3882   0.8278   0.1019   0.0183   0.0898  -0.58    0.0   0.0000   0.0000   0.0000   30.0000   30.0000   30.0000
2026/01/15 14:55:47.416   32.062860159   34.800666566    53.3959   4   0   0.4014   0.3656   0.8478   0.0683  -0.2050   0.2104  -0.58    0.0   0.0000   0.0000   0.0000   30.0000   30.0000   30.0000
2026/01/15 14:55:48.416   32.062855399   34.800673268    54.2894   4   0   0.3807   0.3585   0.7898   0.1050  -0.1695   0.0778  -0.58    0.0   0.0000   0.0000   0.0000   30.0000   30.0000   30.0000
2026/01/15 14:55:49.416   32.062879566   34.800659853    58.8166   4   0   0.3843   0.3582   0.7835   0.1022  -0.1627   0.0628  -0.58    0.0   0.0000   0.0000   0.0000   30.0000   30.0000   30.0000
2026/01/15 14:55:50.416   32.062895194   34.800671918    58.0228   4   0   0.3832   0.3562   0.7809   0.1074  -0.1545   0.0439  -0.58    0.0   0.0000   0.0000   0.0000   30.0000   30.0000   30.0000
2026/01/15 14:55:51.416   32.062906169   34.800719321    58.4196   4   0   0.3832   0.3600   0.7903   0.0981  -0.1648   0.0622  -0.58    0.0   0.0000   0.0000   0.0000   30.0000   30.0000   30.0000
2026/01/15 14:55:52.416   32.062873098   34.800778799    64.5764   4   0   0.3835   0.3582   0.7897   0.1053  -0.1609   0.0828  -0.58    0.0   0.0000   0.0000   0.0000   30.0000   30.0000   30.0000
2026/01/15 14:55:53.416   32.062889755   34.800789868    64.6409   4   0   0.3876   0.3601   0.7970   0.1182  -0.1781   0.0539  -0.58    0.0   0.0000   0.0000   0.0000   30.0000   30.0000   30.0000
2026/01/15 14:55:54.416   32.062929516   34.800823439    61.6109   4   0   0.3849   0.3617   0.7952   0.1162  -0.1712  -0.0634  -0.58    0.0   0.0000   0.0000   0.0000   30.0000   30.0000   30.0000
2026/01/15 14:55:55.416   32.062927763   34.800877636    63.8522   4   0   0.3847   0.3810   0.8184   0.1031   0.0552   0.0553  -0.58    0.0   0.0000   0.0000   0.0000   30.0000   30.0000   30.0000
2026/01/15 14:55:56.416   32.062919859   34.800950995    62.5583   4   0   0.3814   0.3785   0.8140   0.1102   0.0245   0.0698  -0.58    0.0   0.0000   0.0000   0.0000   30.0000   30.0000   30.0000
2026/01/15 14:55:57.416   32.062950300   34.801010943    61.2903   4   0   0.3798   0.3576   0.7848   0.1083  -0.1613   0.0607  -0.58    0.0   0.0000   0.0000   0.0000   30.0000   30.0000   30.0000
2026/01/15 14:55:58.416   32.062918350   34.801083168    63.5152   4   0   0.3849   0.3588   0.7899   0.1018  -0.1567   0.0708  -0.58    0.0   0.0000   0.0000   0.0000   30.0000   30.0000   30.0000
2026/01/15 14:55:59.416   32.062925811   34.801129774    61.9729   4   0   0.3863   0.3587   0.7859   0.0977  -0.1412  -0.0515  -0.58    0.0   0.0000   0.0000   0.0000   30.0000   30.0000   30.0000
2026/01/15 14:56:00.416   32.062930989   34.801181111    63.4675   4   0   0.3869   0.3606   0.7949   0.1189  -0.1770   0.0377  -0.58    0.0   0.0000   0.0000   0.0000   30.0000   30.0000   30.0000
2026/01/15 14:56:01.416   32.062986748   34.801268250    63.3382   4   0   0.3911   0.3603   0.7945   0.1154  -0.1637  -0.0483  -0.58    0.0   0.0000   0.0000   0.0000   30.0000   30.0000   30.0000
2026/01/15 14:56:02.416   32.062927915   34.801314818    58.3548   4   0   0.3824   0.3580   0.7905   0.1132  -0.1457   0.0501  -0.58    0.0   0.0000   0.0000   0.0000   30.0000   30.0000   30.0000
2026/01/15 14:56:03.416   32.062914221   34.801335197    52.9728   4   0   0.3838   0.3574   0.7834   0.1045  -0.1467  -0.0135  -0.58    0.0   0.0000   0.0000   0.0000   30.0000   30.0000   30.0000
2026/01/15 14:56:04.416   32.062905863   34.801350498    50.5012   4   0   0.3806   0.3588   0.7918   0.1048  -0.1579   0.0440  -0.58    0.0   0.0000   0.0000   0.0000   30.0000   30.0000   30.0000
2026/01/15 14:56:05.416   32.062883955   34.801363584    49.9493   4   0   0.3839   0.3582   0.7834   0.1031  -0.1607   0.0571  -0.58    0.0   0.0000   0.0000   0.0000   30.0000   30.0000   30.0000
2026/01/15 14:56:06.416   32.062871017   34.801400901    51.5439   4   0   0.3828   0.3562   0.7815   0.1082  -0.1522   0.0361  -0.58    0.0   0.0000   0.0000   0.0000   30.0000   30.0000   30.0000
2026/01/15 14:56:07.416   32.062836659   34.801399193    51.9711   4   0   0.3825   0.3830   0.8163   0.1133  -0.0680   0.0302  -0.58    0.0   0.0000   0.0000   0.0000   30.0000   30.0000   30.0000
2026/01/15 14:56:08.416   32.062777279   34.801424157    51.5622   4   0   0.3868   0.3600   0.7890   0.0945  -0.1585   0.0437  -0.58    0.0   0.0000   0.0000   0.0000   30.0000   30.0000   30.0000
2026/01/15 14:56:09.416   32.062742600   34.801437485    50.8799   4   0   0.3839   0.3585   0.7886   0.1040  -0.1651   0.0632  -0.58    0.0   0.0000   0.0000   0.0000   30.0000   30.0000   30.0000
2026/01/15 14:56:10.416   32.062697661   34.801447149    55.1227   4   0   0.4002   0.3618   0.8375   0.0702  -0.1996   0.1953  -0.58    0.0   0.0000   0.0000   0.0000   30.0000   30.0000   30.0000
2026/01/15 14:56:11.416   32.062645061   34.801477586    61.6966   4   0   0.3862   0.3595   0.7881   0.0967  -0.1553   0.0290  -0.58    0.0   0.0000   0.0000   0.0000   30.0000   30.0000   30.0000
2026/01/15 14:56:12.416   32.062606483   34.801517078    59.1058   4   0   0.3863   0.3622   0.7915   0.0946  -0.1661   0.0589  -0.58    0.0   0.0000   0.0000   0.0000   30.0000   30.0000   30.0000
2026/01/15 14:56:13.416   32.062543950   34.801507540    55.8071   4   0   0.3806   0.3612   0.7920   0.1051  -0.1773   0.0738  -0.58    0.0   0.0000   0.0000   0.0000   30.0000   30.0000   30.0000
2026/01/15 14:56:14.416   32.062489389   34.801499792    59.4765   4   0   0.3838   0.3574   0.7847   0.1045  -0.1595   0.0586  -0.58    0.0   0.0000   0.0000   0.0000   30.0000   30.0000   30.0000
2026/01/15 14:56:15.416   32.062462339   34.801533809    58.2619   4   0   0.3855   0.3640   0.7846   0.1149  -0.1692   0.0328  -0.58    0.0   0.0000   0.0000   0.0000   30.0000   30.0000   30.0000
2026/01/15 14:56:16.416   32.062394885   34.801554841    59.0434   4   0   0.3800   0.3612   0.7845   0.1142  -0.1514   0.0628  -0.58    0.0   0.0000   0.0000   0.0000   30.0000   30.0000   30.0000
2026/01/15 14:56:17.416   32.062348727   34.801580969    61.3435   4   0   0.3832   0.3599   0.7818   0.1137  -0.1426   0.0444  -0.58    0.0   0.0000   0.0000   0.0000   30.0000   30.0000   30.0000
2026/01/15 14:56:18.416   32.062334742   34.801617662    58.5807   4   0   0.3837   0.3619   0.7883   0.1016  -0.1657   0.0504  -0.58    0.0   0.0000   0.0000   0.0000   30.0000   30.0000   30.0000
2026/01/15 14:56:19.416   32.062303716   34.801621726    58.4981   4   0   0.3793   0.3599   0.7873   0.1096  -0.1692   0.0518  -0.58    0.0   0.0000   0.0000   0.0000   30.0000   30.0000   30.0000
2026/01/15 14:56:20.416   32.062266459   34.801628839    58.7036   4   0   0.3825   0.3573   0.7826   0.1088  -0.1558   0.0291  -0.58    0.0   0.0000   0.0000   0.0000   30.0000   30.0000   30.0000
2026/01/15 14:56:21.416   32.062232194   34.801650459    61.5171   4   0   0.3901   0.3729   0.7935   0.1170  -0.1506   0.0493  -0.58    0.0   0.0000   0.0000   0.0000   30.0000   30.0000   30.0000
2026/01/15 14:56:22.416   32.062187401   34.801639263    63.7040   4   0   0.3805   0.3631   0.7920   0.1182  -0.1708   0.0200  -0.58    0.0   0.0000   0.0000   0.0000   30.0000   30.0000   30.0000
2026/01/15 14:56:23.416   32.062124983   34.801596717    60.0499   4   0   0.3844   0.3854   0.8134   0.1281  -0.0178   0.0389  -0.58    0.0   0.0000   0.0000   0.0000   30.0000   30.0000   30.0000
2026/01/15 14:56:24.416   32.062091292   34.801682294    57.1055   4   0   0.3801   0.3629   0.7893   0.1154  -0.1731   0.0396  -0.58    0.0   0.0000   0.0000   0.0000   30.0000   30.0000   30.0000
2026/01/15 14:56:25.416   32.062069428   34.801690629    56.1856   4   0   0.3863   0.3626   0.7920   0.0949  -0.1673   0.0365  -0.58    0.0   0.0000   0.0000   0.0000   30.0000   30.0000   30.0000
2026/01/15 14:56:26.416   32.062018412   34.801717189    55.8584   4   0   0.3978   0.3723   0.7996   0.1234  -0.1532   0.0677  -0.58    0.0   0.0000   0.0000   0.0000   30.0000   30.0000   30.0000
2026/01/15 14:56:27.416   32.061972397   34.801744634    57.0234   4   0   0.3803   0.3588   0.7883   0.1057  -0.1661   0.0707  -0.58    0.0   0.0000   0.0000   0.0000   30.0000   30.0000   30.0000
2026/01/15 14:56:28.416   32.061924288   34.801759665    54.6847   4   0   0.3855   0.3604   0.7919   0.0962  -0.1725   0.0839  -0.58    0.0   0.0000   0.0000   0.0000   30.0000   30.0000   30.0000
2026/01/15 14:56:29.416   32.061864725   34.801776217    53.3144   4   0   0.3855   0.3632   0.7960   0.0950  -0.1829   0.0859  -0.58    0.0   0.0000   0.0000   0.0000   30.0000   30.0000   30.0000
2026/01/15 14:56:30.416   32.061794948   34.801778501    57.8907   4   0   0.3803   0.3616   0.7825   0.1239  -0.1605  -0.0303  -0.58    0.0   0.0000   0.0000   0.0000   30.0000   30.0000   30.0000
2026/01/15 14:56:31.416   32.061758088   34.801805254    55.2155   4   0   0.3923   0.3638   0.7987   0.0973  -0.1684   0.0900  -0.58    0.0   0.0000   0.0000   0.0000   30.0000   30.0000   30.0000
2026/01/15 14:56:32.416   32.061715491   34.801804603    56.7658   4   0   0.3862   0.3601   0.7886   0.0957  -0.1627   0.0585  -0.58    0.0   0.0000   0.0000   0.0000   30.0000   30.0000   30.0000
2026/01/15 14:56:33.416   32.061661831   34.801807161    54.3254   4   0   0.3783   0.3558   0.7804   0.1137  -0.1500   0.0272  -0.58    0.0   0.0000   0.0000   0.0000   30.0000   30.0000   30.0000
2026/01/15 14:56:34.416   32.061597679   34.801845308    55.3783   4   0   0.3841   0.3605   0.7887   0.1007  -0.1693   0.0656  -0.58    0.0   0.0000   0.0000   0.0000   30.0000   30.0000   30.0000
2026/01/15 14:56:35.416   32.061540384   34.801841571    52.5562   4   0   0.3789   0.3598   0.7869   0.1104  -0.1674   0.0460  -0.58    0.0   0.0000   0.0000   0.0000   30.0000   30.0000   30.0000
2026/01/15 14:56:36.416   32.061493560   34.801846833    55.3220   4   0   0.3829   0.3570   0.7832   0.1068  -0.1549   0.0440  -0.58    0.0   0.0000   0.0000   0.0000   30.0000   30.0000   30.0000
2026/01/15 14:56:37.416   32.061446650   34.801872565    58.0410   4   0   0.3789   0.3575   0.7827   0.1102  -0.1571   0.0462  -0.58    0.0   0.0000   0.0000   0.0000   30.0000   30.0000   30.0000
2026/01/15 14:56:38.416   32.061396473   34.801892625    56.2969   4   0   0.3807   0.3596   0.7825   0.1035  -0.1573   0.0467  -0.58    0.0   0.0000   0.0000   0.0000   30.0000   30.0000   30.0000
2026/01/15 14:56:39.416   32.061339345   34.801899216    55.1361   4   0   0.3781   0.3557   0.7796   0.1139  -0.1489   0.0218  -0.58    0.0   0.0000   0.0000   0.0000   30.0000   30.0000   30.0000
2026/01/15 14:56:40.416   32.061305706   34.801897789    56.1882   4   0   0.3804   0.3570   0.7815   0.1084  -0.1427  -0.0445  -0.58    0.0   0.0000   0.0000   0.0000   30.0000   30.0000   30.0000
2026/01/15 14:56:41.416   32.061259573   34.801864566    54.4870   4   0   0.3820   0.3561   0.7795   0.1099  -0.1481  -0.0072  -0.58    0.0   0.0000   0.0000   0.0000   30.0000   30.0000   30.0000
